[
  {
    "name": "Box Elder County",
    "county_fips": "49003",
    "lat": 41.52122878475564,
    "lon": -113.08286306136326
  },
  {
    "name": "Cache County",
    "county_fips": "49005",
    "lat": 41.72215135671157,
    "lon": -111.74343838240965
  },
  {
    "name": "Davis County",
    "county_fips": "49011",
    "lat": 40.99009493840931,
    "lon": -112.11134039389653
  },
  {
    "name": "Juab County",
    "county_fips": "49023",
    "lat": 39.704587410184445,
    "lon": -112.7845782688062
  },
  {
    "name": "Morgan County",
    "county_fips": "49029",
    "lat": 41.08914376602555,
    "lon": -111.57347104444347
  },
  {
    "name": "Salt Lake County",
    "county_fips": "49035",
    "lat": 40.66723999934726,
    "lon": -111.92362134401144
  },
  {
    "name": "Summit County",
    "county_fips": "49043",
    "lat": 40.86869396662068,
    "lon": -110.95608381758106
  },
  {
    "name": "Tooele County",
    "county_fips": "49045",
    "lat": 40.44851306816086,
    "lon": -113.13120307051196
  },
  {
    "name": "Utah County",
    "county_fips": "49049",
    "lat": 40.119831542966935,
    "lon": -111.66967401765476
  },
  {
    "name": "Wasatch County",
    "county_fips": "49051",
    "lat": 40.330410120465906,
    "lon": -111.16771898384322
  },
  {
    "name": "Weber County",
    "county_fips": "49057",
    "lat": 41.2700740342814,
    "lon": -111.91370588649801
  }
]